{
"type": "FeatureCollection",
"name": "nagano2",
"crs": { "type": "name", "properties": { "name": "urn:ogc:def:crs:OGC:1.3:CRS84" } },
"features": [
{ "type": "Feature", "properties": { "category": "旅館", "name": "清水屋旅館", "name_e": "Shimizuya Ryokan", "address": "長野市花咲町1254", "address_e": "Nagano City Hanasaki-cho, 1254 ", "tel": "026-233-3211", "fax": "026-233-3225", "url2": "http:\/\/www.nagano-yado.jp\/hotel\/detail01.html", "url": null, "lon": 138.19467, "lat": 36.64853 }, "geometry": { "type": "Point", "coordinates": [ 138.19467, 36.64853 ] } },
{ "type": "Feature", "properties": { "category": "旅館", "name": "松屋旅館", "name_e": "Matsuya Ryokan", "address": "長野県長野市元善町484（善光寺境内）", "address_e": "Nagano Motozen-cho, 484 ", "tel": "026-232-2811", "fax": "026-233-2047", "url2": "http:\/\/www.nagano-yado.jp\/hotel\/detail02.html", "url": "http:\/\/matsuyaryokan.server-shared.com\/", "lon": 138.19467, "lat": 36.64853 }, "geometry": { "type": "Point", "coordinates": [ 138.19467, 36.64853 ] } },
{ "type": "Feature", "properties": { "category": "旅館", "name": "いづみや旅館", "name_e": "Izumi Ryokan", "address": "長野市元善町484", "address_e": "Nagano Motozen-cho, 484 ", "tel": "026-232-2578", "fax": "026-232-1796", "url2": "http:\/\/www.nagano-yado.jp\/hotel\/detail04.html", "url": "http:\/\/w1.avis.ne.jp\/~izumiya\/", "lon": 138.19467, "lat": 36.64853 }, "geometry": { "type": "Point", "coordinates": [ 138.19467, 36.64853 ] } },
{ "type": "Feature", "properties": { "category": "旅館", "name": "二葉屋旅館", "name_e": "Futaba Ryokan", "address": "長野市東之門町2490", "address_e": "Nagano Higashinomon-cho 2490 ", "tel": "026-234-1361", "fax": "026-233-1517", "url2": "http:\/\/www.nagano-yado.jp\/hotel\/detail05.html", "url": null, "lon": 138.18092, "lat": 36.58519 }, "geometry": { "type": "Point", "coordinates": [ 138.18092, 36.58519 ] } },
{ "type": "Feature", "properties": { "category": "ホテル", "name": "ホテルアルカディア", "name_e": "Hotel Arcadia", "address": "長野市門沢5299", "address_e": "Nagano City Kadosawa 5299", "tel": "026-239-2011", "fax": "026-239-2622", "url2": "http:\/\/www.nagano-yado.jp\/hotel\/detail08.html", "url": "http:\/\/www.one-only-arcadia.com\/", "lon": 138.14331, "lat": 36.7188 }, "geometry": { "type": "Point", "coordinates": [ 138.14331, 36.7188 ] } },
{ "type": "Feature", "properties": { "category": "旅館", "name": "中央館 清水屋旅館", "name_e": "Chuokan Shimizuya Ryokan", "address": "長野市大門町49", "address_e": "Nagano City Daimon-cho, 49 ", "tel": "026-232-2580", "fax": "026-234-5911", "url2": "http:\/\/www.nagano-yado.jp\/hotel\/detail10.html", "url": "http:\/\/www.chuoukan-shimizuya.com\/", "lon": 137.97842, "lat": 36.50428 }, "geometry": { "type": "Point", "coordinates": [ 137.97842, 36.50428 ] } },
{ "type": "Feature", "properties": { "category": "ホテル", "name": "もてなしの宿 臼井館  (ホテル臼井館)", "name_e": "Hotel Usui Museum", "address": "長野市県町481", "address_e": "Nagano Prefecture, the town 481 ", "tel": "026-233-1313", "fax": "026-233-5777", "url2": "http:\/\/www.nagano-yado.jp\/hotel\/detail11.html", "url": "http:\/\/w1.avis.ne.jp\/~usuikan\/", "lon": 138.19467, "lat": 36.64853 }, "geometry": { "type": "Point", "coordinates": [ 138.19467, 36.64853 ] } },
{ "type": "Feature", "properties": { "category": "ホテル", "name": "THE SAIHOKUKAN HOTEL", "name_e": "THE SAIHOKUKAN HOTEL", "address": "長野市県町528-1", "address_e": "Nagano Prefecture cho, 528-1 ", "tel": "026-235-3333", "fax": "026-235-3365", "url2": "http:\/\/www.nagano-yado.jp\/hotel\/detail13.html", "url": "http:\/\/saihokukan.com\/", "lon": 138.19467, "lat": 36.64853 }, "geometry": { "type": "Point", "coordinates": [ 138.19467, 36.64853 ] } },
{ "type": "Feature", "properties": { "category": "ホテル", "name": "ホテル国際２１ 長野", "name_e": "Hotel Kokusai 21", "address": "長野市県町576", "address_e": "Nagano Prefecture, the town 576 ", "tel": "026-234-1111", "fax": "026-234-2365", "url2": "http:\/\/www.nagano-yado.jp\/hotel\/detail14.html", "url": "http:\/\/www.kokusai21.jp\/", "lon": 138.19467, "lat": 36.64853 }, "geometry": { "type": "Point", "coordinates": [ 138.19467, 36.64853 ] } },
{ "type": "Feature", "properties": { "category": "ホテル", "name": "ホテルやま", "name_e": "Hotel Yama", "address": "長野市権堂町2273", "address_e": "Nagano City Gondo-cho 2273 ", "tel": "026-235-1634", "fax": "026-234-8325", "url2": "http:\/\/www.nagano-yado.jp\/hotel\/detail19.html", "url": "http:\/\/www.yama39.com\/hotel\/", "lon": 138.19467, "lat": 36.64853 }, "geometry": { "type": "Point", "coordinates": [ 138.19467, 36.64853 ] } },
{ "type": "Feature", "properties": { "category": "ホテル", "name": "ホテル自彊館（じきょうかん）", "name_e": "Hotel Jikyokan", "address": "長野市南石堂町1259", "address_e": "Nagano Minamiishido-cho 1259 ", "tel": "026-226-7055", "fax": "026-226-7055", "url2": "http:\/\/www.nagano-yado.jp\/hotel\/detail20.html", "url": "http:\/\/nttbj.itp.ne.jp\/0262267055\/", "lon": 138.18964, "lat": 36.64522 }, "geometry": { "type": "Point", "coordinates": [ 138.18964, 36.64522 ] } },
{ "type": "Feature", "properties": { "category": "ホテル", "name": "2:ホテル自彊館（じきょうかん）", "name_e": "HOTEL Jikyokan", "address": "長野県長野市南長野1259", "address_e": null, "tel": "026-226-7055", "fax": null, "url2": null, "url": "https:\/\/itp.ne.jp\/info\/209810008000000899\/", "lon": 138.17264, "lat": 36.65671 }, "geometry": { "type": "Point", "coordinates": [ 138.17264, 36.65671 ] } },
{ "type": "Feature", "properties": { "category": "ホテル", "name": "長野リンデンプラザホテル", "name_e": "Nagano Linden Plaza Hotel", "address": "長野市南千歳町975-1", "address_e": "Nagano Minamichitose-cho, 975-1 ", "tel": "026-225-1119", "fax": "026-225-1555", "url2": "http:\/\/www.nagano-yado.jp\/hotel\/detail24.html", "url": "http:\/\/www.lindenplaza.jp\/", "lon": 138.18964, "lat": 36.64522 }, "geometry": { "type": "Point", "coordinates": [ 138.18964, 36.64522 ] } },
{ "type": "Feature", "properties": { "category": "ホテル", "name": "ホテルナガノアベニュー", "name_e": "Hotel Nagano Avenue", "address": "長野市南千歳2-8-5", "address_e": "Nagano City Minamichitose 2-8-5", "tel": "026-223-1123", "fax": "026-223-7690", "url2": "http:\/\/www.nagano-yado.jp\/hotel\/detail26.html", "url": "http:\/\/www.naganoavenue.com\/", "lon": 138.19057, "lat": 36.64736 }, "geometry": { "type": "Point", "coordinates": [ 138.19057, 36.64736 ] } },
{ "type": "Feature", "properties": { "category": "ホテル", "name": "アイランドホテル", "name_e": "Island Hotel", "address": "長野市南千歳２丁目15-8", "address_e": "Nagano City Minamichitose 2-15-8 ", "tel": "026-226-3388", "fax": "026-226-4550", "url2": "http:\/\/www.nagano-yado.jp\/hotel\/detail27.html", "url": "http:\/\/www.island-hotel.co.jp\/", "lon": 138.19101, "lat": 36.64678 }, "geometry": { "type": "Point", "coordinates": [ 138.19101, 36.64678 ] } },
{ "type": "Feature", "properties": { "category": "ホテル", "name": "ホテルニューナガノ", "name_e": "Hotel New Nagano", "address": "長野市南千歳町828", "address_e": "Nagano City Minamichitose 828", "tel": "026-227-7200", "fax": "026-228-3058", "url2": "http:\/\/www.nagano-yado.jp\/hotel\/detail28.html", "url": "http:\/\/www.newnagano.com\/", "lon": 138.18964, "lat": 36.64522 }, "geometry": { "type": "Point", "coordinates": [ 138.18964, 36.64522 ] } },
{ "type": "Feature", "properties": { "category": "ホテル", "name": "相鉄フレッサイン 長野駅善光寺口", "name_e": "Sotetsu Fresa Inn Nagano Station Zenkoji exit", "address": "長野市末広町1356", "address_e": "Nagano Suehiro-cho, 1356", "tel": "026-480-2301", "fax": "026-480-2035", "url2": "http:\/\/www.nagano-yado.jp\/hotel\/detail32.html", "url": "http:\/\/fresa-inn.jp\/nagano", "lon": 138.19467, "lat": 36.64853 }, "geometry": { "type": "Point", "coordinates": [ 138.19467, 36.64853 ] } },
{ "type": "Feature", "properties": { "category": "ホテル", "name": "長野第一ホテル", "name_e": "Nagano Daiichi Hotel", "address": "長野市南千歳1-16-2", "address_e": "Nagano City Minamichitose 1-16-2", "tel": "026-228-1211", "fax": "026-224-1288", "url2": "http:\/\/www.nagano-yado.jp\/hotel\/detail33.html", "url": "http:\/\/www.nagano-daiichi.jp\/", "lon": 138.18999, "lat": 36.64479 }, "geometry": { "type": "Point", "coordinates": [ 138.18999, 36.64479 ] } },
{ "type": "Feature", "properties": { "category": "旅館", "name": "旅館大橋", "name_e": "Ryokan Ohashi", "address": "長野市川合新田749", "address_e": "Nagano City Kawaishinden 749", "tel": "026-221-2169", "fax": "026-221-3127", "url2": "http:\/\/www.nagano-yado.jp\/hotel\/detail38.html", "url": "http:\/\/www.mytrip.net\/HOTEL\/5412\/5412.html", "lon": 138.20239, "lat": 36.62652 }, "geometry": { "type": "Point", "coordinates": [ 138.20239, 36.62652 ] } },
{ "type": "Feature", "properties": { "category": "ホテル", "name": "ホテルJALシティ長野", "name_e": "Hotel JAL City Nagano", "address": "長野市問御所町1221", "address_e": "Nagano Toigosho-cho 1221 ", "tel": "026-225-1131", "fax": "026-225-0031", "url2": "http:\/\/www.nagano-yado.jp\/hotel\/detail40.html", "url": "https:\/\/www.nagano.jalcity.co.jp\/", "lon": 138.19467, "lat": 36.64853 }, "geometry": { "type": "Point", "coordinates": [ 138.19467, 36.64853 ] } },
{ "type": "Feature", "properties": { "category": "ホテル", "name": "2:ホテルJALシティ長野", "name_e": "Hotel JAL City Nagano", "address": "長野県長野市大字鶴賀1221", "address_e": null, "tel": "026-225-1131", "fax": null, "url2": null, "url": "https:\/\/www.nagano.jalcity.co.jp\/", "lon": 138.18761, "lat": 36.64849 }, "geometry": { "type": "Point", "coordinates": [ 138.18761, 36.64849 ] } },
{ "type": "Feature", "properties": { "category": "ホテル", "name": "ホテルニューやま", "name_e": "Hotel New Yama", "address": "長野市権堂町2290", "address_e": "Nagano City Gondo-cho 2290 ", "tel": "026-235-1655", "fax": "026-234-8325", "url2": "http:\/\/www.nagano-yado.jp\/hotel\/detail42.html", "url": "http:\/\/www.yama39.com\/hotelnew\/", "lon": 138.19467, "lat": 36.64853 }, "geometry": { "type": "Point", "coordinates": [ 138.19467, 36.64853 ] } },
{ "type": "Feature", "properties": { "category": "ホテル", "name": "ホテルメトロポリタン長野", "name_e": "Hotel Metropolitan Nagano", "address": "長野市南石堂町1346", "address_e": "Nagano Minamiishido-cho 1346 ", "tel": "026-291-7000", "fax": "026-291-7007", "url2": "http:\/\/www.nagano-yado.jp\/hotel\/detail45.html", "url": "http:\/\/www.metro-n.co.jp\/", "lon": 138.18964, "lat": 36.64522 }, "geometry": { "type": "Point", "coordinates": [ 138.18964, 36.64522 ] } },
{ "type": "Feature", "properties": { "category": "ホテル", "name": "2:ホテルメトロポリタン長野", "name_e": "HOTEL METROPOLITAN NAGANO", "address": "長野県長野市南石堂町1346", "address_e": null, "tel": "026-291-7000", "fax": null, "url2": null, "url": "https:\/\/nagano.metropolitan.jp\/", "lon": 138.18964, "lat": 36.64522 }, "geometry": { "type": "Point", "coordinates": [ 138.18964, 36.64522 ] } },
{ "type": "Feature", "properties": { "category": "ホテル", "name": "東横イン長野駅善光寺口", "name_e": "Toyoko Inn Nagano Station Zenkoji exit", "address": "長野市南石堂町1315-8", "address_e": "Nagano Minamiishido-cho 1315-8 ", "tel": "026-228-1045", "fax": "026-228-1057", "url2": "http:\/\/www.nagano-yado.jp\/hotel\/detail46.html", "url": "http:\/\/www.toyoko-inn.com\/", "lon": 138.18964, "lat": 36.64522 }, "geometry": { "type": "Point", "coordinates": [ 138.18964, 36.64522 ] } },
{ "type": "Feature", "properties": { "category": "ホテル", "name": "長野東急ＲＥＩホテル", "name_e": "Nagano Tokyu REI Hotel", "address": "長野市南千歳1-28-3", "address_e": "Nagano City Minamichitose 1-28-3", "tel": "026-223-1090", "fax": "026-229-7770", "url2": "http:\/\/www.nagano-yado.jp\/hotel\/detail47.html", "url": "http:\/\/www.nagano.rei.tokyuhotels.co.jｐ", "lon": 138.18781, "lat": 36.64428 }, "geometry": { "type": "Point", "coordinates": [ 138.18781, 36.64428 ] } },
{ "type": "Feature", "properties": { "category": "ホテル", "name": "チサングランド長野", "name_e": "Chisun Grand Nagano", "address": "長野市南千歳２－１７－１ ", "address_e": null, "tel": "026-264-6000", "fax": "026-264-5511", "url2": null, "url": "https:\/\/www.solarehotels.com\/hotel\/nagano\/chisungrand-nagano\/", "lon": 138.19211, "lat": 36.64615 }, "geometry": { "type": "Point", "coordinates": [ 138.19211, 36.64615 ] } },
{ "type": "Feature", "properties": { "category": "ホテル", "name": "2:チサングランド長野", "name_e": "Chisun Grand Nagano", "address": "長野県長野市南千歳2-17-1", "address_e": null, "tel": "026-264-6000", "fax": null, "url2": null, "url": "https:\/\/www.solarehotels.com\/hotel\/nagano\/chisungrand-nagano\/", "lon": 138.19211, "lat": 36.64615 }, "geometry": { "type": "Point", "coordinates": [ 138.19211, 36.64615 ] } },
{ "type": "Feature", "properties": { "category": "ホテル", "name": "アイランドホテル", "name_e": "Island Hotel", "address": "長野市南千歳２－１５－８", "address_e": null, "tel": "026-226-3388", "fax": null, "url2": null, "url": "http:\/\/www.island-hotel.co.jp\/", "lon": 138.19101, "lat": 36.64678 }, "geometry": { "type": "Point", "coordinates": [ 138.19101, 36.64678 ] } },
{ "type": "Feature", "properties": { "category": "ホテル", "name": "ドーミーイン長野", "name_e": "dormy inn Nagano ", "address": "長野市南長野北石堂町１３７３－１", "address_e": null, "tel": "026-291-5489", "fax": null, "url2": null, "url": "https:\/\/www.hotespa.net\/hotels\/nagano\/", "lon": 138.18755, "lat": 36.64486 }, "geometry": { "type": "Point", "coordinates": [ 138.18755, 36.64486 ] } },
{ "type": "Feature", "properties": { "category": "ホテル", "name": "ホテルメルパルク長野", "name_e": "Hotel Mielparque Nagano", "address": "長野市鶴賀高畑７５２－８ ", "address_e": null, "tel": "026-225-7800", "fax": "026-225-7801", "url2": null, "url": "https:\/\/www.mielparque.jp\/nagano\/", "lon": 138.19243, "lat": 36.64849 }, "geometry": { "type": "Point", "coordinates": [ 138.19243, 36.64849 ] } },
{ "type": "Feature", "properties": { "category": "ホテル", "name": "シティガーデンホテル信濃路", "name_e": "Hotel Shinanoji", "address": "長野市中御所岡田町１３１－４", "address_e": null, "tel": "026-226-5212", "fax": "026-226-5168", "url2": null, "url": "http:\/\/www.hotel-shinanoji.com\/", "lon": 138.17958, "lat": 36.64993 }, "geometry": { "type": "Point", "coordinates": [ 138.17958, 36.64993 ] } },
{ "type": "Feature", "properties": { "category": "ホテル", "name": "長野プラザホテル", "name_e": "Nagano Plaza Hotel", "address": "長野市南石堂町１３２６", "address_e": null, "tel": "026-224-0100", "fax": null, "url2": null, "url": "https:\/\/select-hotels.jp\/naganoplaza\/", "lon": 138.18964, "lat": 36.64522 }, "geometry": { "type": "Point", "coordinates": [ 138.18964, 36.64522 ] } },
{ "type": "Feature", "properties": { "category": "ホテル", "name": "スマイルホテル長野", "name_e": "Smile Hotel Nagano", "address": "長野市大字鶴賀上千歳1177-3 ", "address_e": null, "tel": "026-226-3211", "fax": null, "url2": null, "url": "https:\/\/smile-hotels.com\/hotels\/show\/nagano", "lon": 138.18942, "lat": 36.64857 }, "geometry": { "type": "Point", "coordinates": [ 138.18942, 36.64857 ] } },
{ "type": "Feature", "properties": { "category": "ホテル", "name": "コンフォートホテル長野", "name_e": "Comfort Hotel Nagano", "address": "長野市南千歳１－１２－４", "address_e": null, "tel": "026-268-1611", "fax": "026-268-1621", "url2": null, "url": "https:\/\/www.choice-hotels.jp\/hotel\/nagano\/", "lon": 138.19049, "lat": 36.64589 }, "geometry": { "type": "Point", "coordinates": [ 138.19049, 36.64589 ] } },
{ "type": "Feature", "properties": { "category": "ホテル", "name": "ホテルアベスト長野駅前", "name_e": "Hotel Abest Nagano Ekimae", "address": "長野市末広町１３６２", "address_e": null, "tel": "026-227-2122", "fax": null, "url2": null, "url": "https:\/\/www.ikemon.com\/", "lon": 138.19467, "lat": 36.64853 }, "geometry": { "type": "Point", "coordinates": [ 138.19467, 36.64853 ] } },
{ "type": "Feature", "properties": { "category": "ホテル", "name": "ホテルセレクトイン長野", "name_e": "Hotel Select Inn Nagano", "address": "長野市鶴賀南千歳町９６５", "address_e": null, "tel": "026-223-1111", "fax": null, "url2": null, "url": "https:\/\/select-hotels.jp\/nagano\/", "lon": 138.18828, "lat": 36.64744 }, "geometry": { "type": "Point", "coordinates": [ 138.18828, 36.64744 ] } },
{ "type": "Feature", "properties": { "category": "ホテル", "name": "長野第一ホテル", "name_e": "Nagano Daiichi Hotel ", "address": "長野市南千歳１－１６－２ ", "address_e": null, "tel": "026-228-1211", "fax": "026-224-1288 ", "url2": null, "url": "https:\/\/www.nagano-daiichi.jp\/", "lon": 138.18999, "lat": 36.64479 }, "geometry": { "type": "Point", "coordinates": [ 138.18999, 36.64479 ] } },
{ "type": "Feature", "properties": { "category": "ホテル", "name": "相鉄フレッサイン長野駅東口", "name_e": "Sotetsu Fresa Inn Nagano-Higashiguchi", "address": "長野市栗田９９５－１ ", "address_e": null, "tel": "026-264-7700", "fax": "026-264-6611", "url2": null, "url": "https:\/\/fresa-inn.jp\/nagano-higashiguchi\/", "lon": 138.19012, "lat": 36.64209 }, "geometry": { "type": "Point", "coordinates": [ 138.19012, 36.64209 ] } },
{ "type": "Feature", "properties": { "category": "オフィス", "name": "長野市ホテル旅館組合事務局", "name_e": "Union secretariat", "address": "長野市西後町1583大鈴木ビル", "address_e": "Nagano Nishigo-cho, 1583 large Suzuki building ", "tel": "026-232-3484", "fax": null, "url2": "http:\/\/www.nagano-yado.jp\/hotel\/", "url": "http:\/\/www.nagano-yado.jp\/", "lon": 138.23982, "lat": 36.68509 }, "geometry": { "type": "Point", "coordinates": [ 138.23982, 36.68509 ] } },
{ "type": "Feature", "properties": { "category": "施設", "name": "長野市生涯学習センター", "name_e": "Nagano City Lifelong Learning Center", "address": "長野市大字鶴賀問御所町1271-3 TOiGO WEST 3F", "address_e": "TOiGO WEST 3F, Oazatsuruga Toigoshomachi 1271-3, Nagano-City, Nagano,Japan", "tel": "026-226-4911", "fax": null, "url2": null, "url": "https:\/\/www.city.nagano.nagano.jp\/soshiki\/154\/", "lon": 138.18764, "lat": 36.64991 }, "geometry": { "type": "Point", "coordinates": [ 138.18764, 36.64991 ] } },
{ "type": "Feature", "properties": { "category": "ホテル", "name": "2:長野セントラルホテル", "name_e": "Nagano Central Hotel", "address": "長野県長野市末広町1358", "address_e": null, "tel": "026-224-4111", "fax": null, "url2": null, "url": null, "lon": 138.19467, "lat": 36.64853 }, "geometry": { "type": "Point", "coordinates": [ 138.19467, 36.64853 ] } },
{ "type": "Feature", "properties": { "category": "ホテル", "name": "2:ホテル日興", "name_e": "Hotel Nikko", "address": "長野県長野市南千歳2-22-3", "address_e": null, "tel": "026-226-2200", "fax": null, "url2": null, "url": "https:\/\/www.hotel-nikko.net\/", "lon": 138.19191, "lat": 36.64711 }, "geometry": { "type": "Point", "coordinates": [ 138.19191, 36.64711 ] } }
]
}
